{
"type": "FeatureCollection",
"name": "אנדרטאות_ומוקדי_הנצחה",
"crs": { "type": "name", "properties": { "name": "urn:ogc:def:crs:OGC:1.3:CRS84" } },
"features": [
{ "type": "Feature", "properties": { "FID": 0, "NoteType": 0, "Name": "מרדכי אנילביץ, יד מרדכי", "Notes": " ", "created_us": "LINKERR", "created_da": 1769040000000, "last_edite": "LINKERR", "last_edi_1": 1769040000000 }, "geometry": { "type": "Point", "coordinates": [ 34.556802797671935, 31.586980801506574 ] } },
{ "type": "Feature", "properties": { "FID": 1, "NoteType": 0, "Name": "אנדרטת הפלמח, ארז", "Notes": " ", "created_us": "LINKERR", "created_da": 1769040000000, "last_edite": "LINKERR", "last_edi_1": 1769040000000 }, "geometry": { "type": "Point", "coordinates": [ 34.56208643725995, 31.560633832866479 ] } },
{ "type": "Feature", "properties": { "FID": 2, "NoteType": 0, "Name": "הפרוז'קטור, ארז", "Notes": " ", "created_us": "LINKERR", "created_da": 1769040000000, "last_edite": "LINKERR", "last_edi_1": 1769040000000 }, "geometry": { "type": "Point", "coordinates": [ 34.564231434304332, 31.558684402833983 ] } },
{ "type": "Feature", "properties": { "FID": 3, "NoteType": 0, "Name": "גשר משה פדר", "Notes": " ", "created_us": "LINKERR", "created_da": 1769040000000, "last_edite": "LINKERR", "last_edi_1": 1769040000000 }, "geometry": { "type": "Point", "coordinates": [ 34.58074125501539, 31.556265485771871 ] } },
{ "type": "Feature", "properties": { "FID": 4, "NoteType": 0, "Name": "גבעת המרדפים", "Notes": " ", "created_us": "LINKERR", "created_da": 1769040000000, "last_edite": "LINKERR", "last_edi_1": 1769040000000 }, "geometry": { "type": "Point", "coordinates": [ 34.586582035690242, 31.553379973672541 ] } },
{ "type": "Feature", "properties": { "FID": 5, "NoteType": 0, "Name": "אנדרטה חוליקאת", "Notes": " ", "created_us": "LINKERR", "created_da": 1769040000000, "last_edite": "LINKERR", "last_edi_1": 1769040000000 }, "geometry": { "type": "Point", "coordinates": [ 34.641127592729063, 31.605031308521692 ] } },
{ "type": "Feature", "properties": { "FID": 6, "NoteType": 0, "Name": "אנדרטה 52", "Notes": " ", "created_us": "LINKERR", "created_da": 1769040000000, "last_edite": "LINKERR", "last_edi_1": 1769040000000 }, "geometry": { "type": "Point", "coordinates": [ 34.657437330699352, 31.611519230831703 ] } },
{ "type": "Feature", "properties": { "FID": 7, "NoteType": 0, "Name": "אנדרטה 54", "Notes": " ", "created_us": "LINKERR", "created_da": 1769040000000, "last_edite": "LINKERR", "last_edi_1": 1769040000000 }, "geometry": { "type": "Point", "coordinates": [ 34.658614554479733, 31.617144962470221 ] } },
{ "type": "Feature", "properties": { "FID": 8, "NoteType": 0, "Name": "קבר אריאל ולילי שרון, גבעת הכלניות", "Notes": " ", "created_us": "LINKERR", "created_da": 1769040000000, "last_edite": "LINKERR", "last_edi_1": 1769040000000 }, "geometry": { "type": "Point", "coordinates": [ 34.628406704888683, 31.50888953288862 ] } },
{ "type": "Feature", "properties": { "FID": 9, "NoteType": 0, "Name": "מצפור אסף סיבוני", "Notes": " ", "created_us": "LINKERR", "created_da": 1769040000000, "last_edite": "LINKERR", "last_edi_1": 1769040000000 }, "geometry": { "type": "Point", "coordinates": [ 34.561721533320792, 31.518806774337872 ] } },
{ "type": "Feature", "properties": { "FID": 10, "NoteType": 0, "Name": "מצפור נביה מרעי", "Notes": " ", "created_us": "LINKERR", "created_da": 1769040000000, "last_edite": "LINKERR", "last_edi_1": 1769040000000 }, "geometry": { "type": "Point", "coordinates": [ 34.552375645627336, 31.513436339885551 ] } },
{ "type": "Feature", "properties": { "FID": 11, "NoteType": 0, "Name": "אנדרטת ציר השישה", "Notes": " ", "created_us": "LINKERR", "created_da": 1769040000000, "last_edite": "LINKERR", "last_edi_1": 1769040000000 }, "geometry": { "type": "Point", "coordinates": [ 34.491454637004686, 31.454229896547751 ] } },
{ "type": "Feature", "properties": { "FID": 12, "NoteType": 0, "Name": "יד אנז\"ק", "Notes": " ", "created_us": "LINKERR", "created_da": 1769040000000, "last_edite": "LINKERR", "last_edi_1": 1769040000000 }, "geometry": { "type": "Point", "coordinates": [ 34.461974222473025, 31.448585659386204 ] } },
{ "type": "Feature", "properties": { "FID": 13, "NoteType": 0, "Name": "אנדרטת חללי שועוט", "Notes": " ", "created_us": "LINKERR", "created_da": 1769040000000, "last_edite": "LINKERR", "last_edi_1": 1769040000000 }, "geometry": { "type": "Point", "coordinates": [ 34.431994550997153, 31.269205643966608 ] } },
{ "type": "Feature", "properties": { "FID": 14, "NoteType": 0, "Name": "אנדרטת אוגדת הפלדה", "Notes": " ", "created_us": "LINKERR", "created_da": 1769040000000, "last_edite": "LINKERR", "last_edi_1": 1769040000000 }, "geometry": { "type": "Point", "coordinates": [ 34.307912498142251, 31.209264027237992 ] } }
]
}
